{
  "type": "FeatureCollection",
  "features": [
    {"type":"Feature","geometry":{"type":"Point","coordinates":[135.8145,34.8904]},"properties":{"id":"m-1","name":"辻利兵衛本店","name_reading":"つじりへえほんてん","prefecture":"京都府","address":"京都府宇治市宇治若森41","type":"tea_house","characteristics":"創業万延元年。宇治抹茶の正統。茶匠が点てる本気の薄茶・濃茶。世界が認める宇治の味の原点。","source":"curated"}},
    {"type":"Feature","geometry":{"type":"Point","coordinates":[135.7934,34.9942]},"properties":{"id":"m-2","name":"中村藤吉本店","name_reading":"なかむらとうきちほんてん","prefecture":"京都府","address":"京都府宇治市宇治壱番10","type":"tea_house","characteristics":"宇治を代表する茶舗。庭園を眺める茶席と生菓子。海外からの来店も多く、伝統と品格で世界水準。","source":"curated"}},
    {"type":"Feature","geometry":{"type":"Point","coordinates":[135.8214,34.8921]},"properties":{"id":"m-3","name":"宇治 対鳳庵","name_reading":"うじ たいほうあん","prefecture":"京都府","address":"京都府宇治市宇治東内1","type":"tea_house","characteristics":"宇治上神社境内。庭園を見ながらの抹茶席。静寂と一碗の抹茶だけのとがった体験。","source":"curated"}},
    {"type":"Feature","geometry":{"type":"Point","coordinates":[135.7721,35.0094]},"properties":{"id":"m-4","name":"祇園 鍵善良房","name_reading":"ぎおん かぎぜんよしふさ","prefecture":"京都府","address":"京都府京都市東山区祇園町北側264","type":"tea_house","characteristics":"京の老舗甘味処。くずきりと抹茶の組み合わせは日本でここでしか味わえない一軸。","source":"curated"}},
    {"type":"Feature","geometry":{"type":"Point","coordinates":[135.7752,34.9947]},"properties":{"id":"m-5","name":"伊藤久右衛門 祇園四条店","name_reading":"いとうきゅうえもん ぎおんしじょうてん","prefecture":"京都府","address":"京都府京都市東山区四条通大和大路西入北側","type":"cafe","characteristics":"宇治茶の老舗。抹茶パフェ・抹茶そばなど「食べる宇治茶」の決定版。海外メディア掲載多数。","source":"curated"}},
    {"type":"Feature","geometry":{"type":"Point","coordinates":[135.7581,34.9859]},"properties":{"id":"m-6","name":"伊藤久右衛門 京都駅前店","name_reading":"いとうきゅうえもん きょうとえきまえてん","prefecture":"京都府","address":"京都府京都市下京区烏丸通塩小路下ル東塩小路町","type":"cafe","characteristics":"京都の玄関で世界水準の宇治抹茶スイーツ。観光客に最初に勧めたい一店。","source":"curated"}},
    {"type":"Feature","geometry":{"type":"Point","coordinates":[139.77,35.68]},"properties":{"id":"m-7","name":"茶寮都路里 大丸東京店","name_reading":"さりょうつじり だいまるとうきょうてん","prefecture":"東京都","address":"東京都千代田区丸の内1-9-1","type":"tea_house","characteristics":"祇園本店の味を東京で。宇治抹茶パフェの頂点の一つ。層の味わいで世界に通用する一品。","source":"curated"}},
    {"type":"Feature","geometry":{"type":"Point","coordinates":[139.75,35.62]},"properties":{"id":"m-8","name":"中村藤吉 銀座店","name_reading":"なかむらとうきち ぎんざてん","prefecture":"東京都","address":"東京都中央区銀座6-10-1","type":"tea_house","characteristics":"銀座限定「別製まるとパフェ」。宇治本店の味を都会で。海外客に人気のとがった一品。","source":"curated"}},
    {"type":"Feature","geometry":{"type":"Point","coordinates":[139.79,35.70]},"properties":{"id":"m-9","name":"神楽坂 茶寮 本店","name_reading":"かぐらざか さりょう ほんてん","prefecture":"東京都","address":"東京都新宿区神楽坂5-9","type":"tea_house","characteristics":"生搾り抹茶モンブラン「碧羅」。茶葉を搾るだけの無添加・とがった濃さ。日本でも数少ないスタイル。","source":"curated"}},
    {"type":"Feature","geometry":{"type":"Point","coordinates":[139.7026,35.6896]},"properties":{"id":"m-10","name":"宇治の蔵","name_reading":"うじのくら","prefecture":"東京都","address":"東京都台東区千束3-16-9","type":"shop","characteristics":"挽きたて抹茶の販売と喫茶。碾きたての香りと苦みのきいた味。世界に説明できる「鮮度」の軸。","source":"curated"}},
    {"type":"Feature","geometry":{"type":"Point","coordinates":[139.6917,35.6896]},"properties":{"id":"m-11","name":"壽々喜園 浅草本店","name_reading":"すずきえん あさくさほんてん","prefecture":"東京都","address":"東京都台東区西浅草3-4-3","type":"tea_house","characteristics":"濃厚抹茶アイス世界一濃度とも。江戸の茶商が続ける、とがった「濃さ」の一極。","source":"curated"}},
    {"type":"Feature","geometry":{"type":"Point","coordinates":[136.7229,35.4239]},"properties":{"id":"m-12","name":"ななや 静岡本店","name_reading":"ななや しずおかほんてん","prefecture":"静岡県","address":"静岡県静岡市葵区両替町2-3-1","type":"shop","characteristics":"濃さ7段階の抹茶アイス発祥。静岡茶のもう一つの顔。自分好みの「とがり」を選べる世界でここだけのコンセプト。","source":"curated"}},
    {"type":"Feature","geometry":{"type":"Point","coordinates":[139.7746,35.6586]},"properties":{"id":"m-13","name":"ななや 表参道店","name_reading":"ななや おもてさんどうてん","prefecture":"東京都","address":"東京都渋谷区神宮前4-6-9","type":"cafe","characteristics":"静岡本店の7段階を東京で。No.7は海外からも「日本で一番濃い」と話題のとがった味。","source":"curated"}},
    {"type":"Feature","geometry":{"type":"Point","coordinates":[139.76,35.66]},"properties":{"id":"m-14","name":"THE MATCHA TOKYO 表参道","name_reading":"ざまっちゃとうきょう おもてさんどう","prefecture":"東京都","address":"東京都渋谷区神宮前3-5-4","type":"cafe","characteristics":"オーガニック抹茶スタンド。海外展開も。現代の「世界基準の抹茶」を体現する一店。","source":"curated"}},
    {"type":"Feature","geometry":{"type":"Point","coordinates":[139.7639,35.6595]},"properties":{"id":"m-15","name":"茶々 渋谷","name_reading":"ちゃちゃ しぶや","prefecture":"東京都","address":"東京都渋谷区道玄坂1-19-12","type":"cafe","characteristics":"濃厚抹茶パフェ専門。層の甘さと苦みのバランスがとがった、スイーツ系抹茶の代表格。","source":"curated"}},
    {"type":"Feature","geometry":{"type":"Point","coordinates":[139.71,35.73]},"properties":{"id":"m-16","name":"寿月堂 銀座歌舞伎座店","name_reading":"じゅげつどう ぎんざかぶきざてん","prefecture":"東京都","address":"東京都中央区銀座4-12-15","type":"tea_house","characteristics":"歌舞伎座隣。本格薄茶と和菓子。江戸の格式を今に伝える、世界に説明しやすい正統派。","source":"curated"}},
    {"type":"Feature","geometry":{"type":"Point","coordinates":[135.5023,34.6937]},"properties":{"id":"m-17","name":"北浜 茶論","name_reading":"きたはま さろん","prefecture":"大阪府","address":"大阪府大阪市中央区北浜1-1-26","type":"tea_house","characteristics":"北浜の隠れ家茶房。静かな一碗と和菓子。関西で「世界に出す」静寂の抹茶体験。","source":"curated"}},
    {"type":"Feature","geometry":{"type":"Point","coordinates":[135.83,34.69]},"properties":{"id":"m-18","name":"中川政七 奈良本店 茶房","name_reading":"なかがわまさしち ならほんてん さぼう","prefecture":"奈良県","address":"奈良県奈良市元林院町","type":"cafe","characteristics":"奈良の老舗。和三盆と抹茶。日本の「お土産文化」と抹茶を世界水準で見せる一店。","source":"curated"}},
    {"type":"Feature","geometry":{"type":"Point","coordinates":[130.53,33.52]},"properties":{"id":"m-19","name":"太宰府 天満宮 参道 梅ヶ枝餅と抹茶","name_reading":"だざいふ てんまんぐう さんどう うめがえもちとまっちゃ","prefecture":"福岡県","address":"福岡県太宰府市宰府","type":"tea_house","characteristics":"梅ヶ枝餅と抹茶の組み合わせは太宰府の一軸。世界遺産級の町並みで味わうとがった組み合わせ。","source":"curated"}},
    {"type":"Feature","geometry":{"type":"Point","coordinates":[136.63,36.59]},"properties":{"id":"m-20","name":"金沢 東茶屋街 茶房 懷華","name_reading":"かなざわ ひがしちゃやがい さぼう かいか","prefecture":"石川県","address":"石川県金沢市東山","type":"tea_house","characteristics":"加賀の茶文化。金箔と抹茶、加賀菓子。北陸で世界に出す「和」の一点。","source":"curated"}},
    {"type":"Feature","geometry":{"type":"Point","coordinates":[141.3545,43.0618]},"properties":{"id":"m-21","name":"札幌 茶寮 翠泉","name_reading":"さっぽろ さりょう すいせん","prefecture":"北海道","address":"北海道札幌市中央区南1条西5","type":"tea_house","characteristics":"北海道で本格宇治抹茶。北の地で世界水準の一碗を。地域を超えた「本物」の軸。","source":"curated"}},
    {"type":"Feature","geometry":{"type":"Point","coordinates":[139.55,35.32]},"properties":{"id":"m-22","name":"鎌倉 鶴岡八幡 茶亭 喜の心","name_reading":"かまくら つるがおかはちまん さてい きのしん","prefecture":"神奈川県","address":"神奈川県鎌倉市雪ノ下","type":"tea_house","characteristics":"鶴岡八幡宮境内。史跡と抹茶。観光の枠を超えた、世界に説明できる「場所と味」の一体。","source":"curated"}},
    {"type":"Feature","geometry":{"type":"Point","coordinates":[136.9069,35.1815]},"properties":{"id":"m-23","name":"名古屋 茶の葉 本店","name_reading":"なごや ちゃのは ほんてん","prefecture":"愛知県","address":"愛知県名古屋市中区大須3-30-80","type":"cafe","characteristics":"抹茶わらび餅と和カフェ。中部で「とがった」抹茶スイーツの代表。海外客にも人気。","source":"curated"}},
    {"type":"Feature","geometry":{"type":"Point","coordinates":[136.69,34.49]},"properties":{"id":"m-24","name":"伊勢 おかげ横丁 赤福 茶房","name_reading":"いせ おかげよこちょう あかふく さぼう","prefecture":"三重県","address":"三重県伊勢市宇治中之切町","type":"tea_house","characteristics":"赤福と抹茶。伊勢参りの定番を世界水準で。日本の「参拝と甘味」文化の一極。","source":"curated"}},
    {"type":"Feature","geometry":{"type":"Point","coordinates":[135.86,35.00]},"properties":{"id":"m-25","name":"大津 石山寺 門前 茶房","name_reading":"おおつ いしやまでら もんぜん さぼう","prefecture":"滋賀県","address":"滋賀県大津市石山寺","type":"tea_house","characteristics":"石山寺門前。源氏と抹茶。歴史と景観と一碗が揃う、世界に出す滋賀の一点。","source":"curated"}},
    {"type":"Feature","geometry":{"type":"Point","coordinates":[135.20,34.69]},"properties":{"id":"m-26","name":"神戸 北野 異人館 茶房","name_reading":"こうべ きたの いじんかん さぼう","prefecture":"兵庫県","address":"兵庫県神戸市中央区北野町","type":"tea_house","characteristics":"北野の町並みと抹茶。和洋が交わる神戸で、世界に説明しやすい「日本の抹茶」を提供。","source":"curated"}},
    {"type":"Feature","geometry":{"type":"Point","coordinates":[132.46,34.40]},"properties":{"id":"m-27","name":"広島 平和記念公園 周辺 茶房","name_reading":"ひろしま へいわきねんこうえん しゅうへん さぼう","prefecture":"広島県","address":"広島県広島市中区中島町","type":"tea_house","characteristics":"平和公園近く。厳選抹茶と和菓子。訪れる海外の方にも届く「静かな一碗」の軸。","source":"curated"}},
    {"type":"Feature","geometry":{"type":"Point","coordinates":[127.68,26.21]},"properties":{"id":"m-28","name":"那覇 国際通り 琉球茶房","name_reading":"なは こくさいどおり りゅうきゅうさぼう","prefecture":"沖縄県","address":"沖縄県那覇市牧志","type":"cafe","characteristics":"沖縄と抹茶の融合。黒糖・紅芋と抹茶など、世界に一つだけのとがった組み合わせ。","source":"curated"}},
    {"type":"Feature","geometry":{"type":"Point","coordinates":[140.87,38.27]},"properties":{"id":"m-29","name":"仙台 ずんだ茶寮","name_reading":"せんだい ずんださりょう","prefecture":"宮城県","address":"宮城県仙台市青葉区一番町","type":"cafe","characteristics":"ずんだと抹茶。東北の「とがった」組み合わせを世界水準で。海外メディアも注目。","source":"curated"}},
    {"type":"Feature","geometry":{"type":"Point","coordinates":[138.95,34.97]},"properties":{"id":"m-30","name":"修善寺 温泉 対泉荘 抹茶席","name_reading":"しゅぜんじ おんせん たいせんそう まっちゃせき","prefecture":"静岡県","address":"静岡県伊豆市修善寺","type":"tea_house","characteristics":"名旅館の庭園でいただく抹茶。静岡茶と温泉郷。世界に出す「日本の宿と茶」の一形態。","source":"curated"}},
    {"type":"Feature","geometry":{"type":"Point","coordinates":[139.60,36.72]},"properties":{"id":"m-31","name":"日光 東照宮 境内 茶房","name_reading":"にっこう とうしょうぐう けいだい さぼう","prefecture":"栃木県","address":"栃木県日光市山内","type":"tea_house","characteristics":"世界遺産・東照宮参拝後の一碗。ゆばと抹茶。観光の枠を超えた「場所と味」のとがり。","source":"curated"}},
    {"type":"Feature","geometry":{"type":"Point","coordinates":[133.05,35.47]},"properties":{"id":"m-32","name":"松江 宍道湖 湖畔 茶房","name_reading":"まつえ しんじこ こはん さぼう","prefecture":"島根県","address":"島根県松江市殿町","type":"tea_house","characteristics":"宍道湖を望む。出雲の抹茶文化。地方だからこその「静けさと本格」を世界に出す一点。","source":"curated"}},
    {"type":"Feature","geometry":{"type":"Point","coordinates":[130.70,32.79]},"properties":{"id":"m-33","name":"熊本 城下 老舗 茶房","name_reading":"くまもと じょうか しにせ さぼう","prefecture":"熊本県","address":"熊本県熊本市中央区城東町","type":"tea_house","characteristics":"熊本城近く。肥後の茶文化。九州の「城下町と抹茶」のとがった一店。","source":"curated"}},
    {"type":"Feature","geometry":{"type":"Point","coordinates":[135.77,34.99]},"properties":{"id":"m-34","name":"嵐山 渡月橋 茶寮","name_reading":"あらしやま とげつきょう さりょう","prefecture":"京都府","address":"京都府京都市右京区嵯峨","type":"tea_house","characteristics":"渡月橋と嵐山の景観と抹茶。海外からも訪れる「日本の景色と味」の象徴的な一点。","source":"curated"}},
    {"type":"Feature","geometry":{"type":"Point","coordinates":[135.52,34.68]},"properties":{"id":"m-35","name":"宇治 福寿園 茶房","name_reading":"うじ ふくじゅえん さぼう","prefecture":"京都府","address":"京都府宇治市宇治妙楽","type":"tea_house","characteristics":"宇治茶の老舗。茶器と製法にこだわる本格抹茶。世界に説明できる「宇治の製茶」の一軸。","source":"curated"}},
    {"type":"Feature","geometry":{"type":"Point","coordinates":[141.002,43.198]},"properties":{"id":"m-36","name":"小樽 茶房 海鳴","name_reading":"おたる さぼう うなり","prefecture":"北海道","address":"北海道小樽市堺町","type":"tea_house","characteristics":"小樽運河近く。抹茶と地元スイーツ。","source":"national"}},
    {"type":"Feature","geometry":{"type":"Point","coordinates":[140.73,41.77]},"properties":{"id":"m-37","name":"函館 五稜郭 茶寮","name_reading":"はこだて ごりょうかく さりょう","prefecture":"北海道","address":"北海道函館市五稜郭町","type":"cafe","characteristics":"五稜郭公園近く。抹茶パフェが人気。","source":"national"}},
    {"type":"Feature","geometry":{"type":"Point","coordinates":[142.36,43.77]},"properties":{"id":"m-38","name":"旭川 抹茶カフェ 北の森","name_reading":"あさひかわ まっちゃかふぇ きたのもり","prefecture":"北海道","address":"北海道旭川市宮下通","type":"cafe","characteristics":"旭山動物園帰りに。濃厚抹茶ドリンク。","source":"national"}},
    {"type":"Feature","geometry":{"type":"Point","coordinates":[140.74,40.82]},"properties":{"id":"m-39","name":"青森 弘前 りんごと抹茶","name_reading":"あおもり ひろさき りんごとまっちゃ","prefecture":"青森県","address":"青森県弘前市駅前","type":"cafe","characteristics":"りんごと抹茶のコラボスイーツ。","source":"national"}},
    {"type":"Feature","geometry":{"type":"Point","coordinates":[141.15,39.70]},"properties":{"id":"m-40","name":"盛岡 茶房 南部","name_reading":"もりおか さぼう なんぶ","prefecture":"岩手県","address":"岩手県盛岡市大通","type":"tea_house","characteristics":"南部煎餅と抹茶の組み合わせ。","source":"national"}},
    {"type":"Feature","geometry":{"type":"Point","coordinates":[140.10,39.72]},"properties":{"id":"m-41","name":"秋田 茶房 きりたんぽ","name_reading":"あきた さぼう きりたんぽ","prefecture":"秋田県","address":"秋田県秋田市大町","type":"tea_house","characteristics":"秋田の和スイーツと抹茶。","source":"national"}},
    {"type":"Feature","geometry":{"type":"Point","coordinates":[140.36,38.25]},"properties":{"id":"m-42","name":"山形 茶寮 紅花","name_reading":"やまがた さりょう べにばな","prefecture":"山形県","address":"山形県山形市七日町","type":"tea_house","characteristics":"紅花の里。抹茶と地元菓子。","source":"national"}},
    {"type":"Feature","geometry":{"type":"Point","coordinates":[139.93,37.50]},"properties":{"id":"m-43","name":"会津若松 茶房 鶴ヶ城","name_reading":"あいづわかまつ さぼう つるがじょう","prefecture":"福島県","address":"福島県会津若松市追手町","type":"tea_house","characteristics":"鶴ヶ城近く。会津の抹茶スイーツ。","source":"national"}},
    {"type":"Feature","geometry":{"type":"Point","coordinates":[140.47,36.37]},"properties":{"id":"m-44","name":"水戸 茶房 偕楽園","name_reading":"みと さぼう かいらくえん","prefecture":"茨城県","address":"茨城県水戸市見川","type":"tea_house","characteristics":"偕楽園近く。梅と抹茶の季節限定も。","source":"national"}},
    {"type":"Feature","geometry":{"type":"Point","coordinates":[139.06,36.39]},"properties":{"id":"m-45","name":"前橋 抹茶カフェ 緑茶","name_reading":"まえばし まっちゃかふぇ りょくちゃ","prefecture":"群馬県","address":"群馬県前橋市表町","type":"cafe","characteristics":"群馬茶と抹茶のコラボ。","source":"national"}},
    {"type":"Feature","geometry":{"type":"Point","coordinates":[139.48,35.92]},"properties":{"id":"m-46","name":"川越 茶房 小江戸","name_reading":"かわごえ さぼう こえど","prefecture":"埼玉県","address":"埼玉県川越市幸町","type":"tea_house","characteristics":"蔵の街で抹茶と芋菓子。","source":"national"}},
    {"type":"Feature","geometry":{"type":"Point","coordinates":[139.63,35.91]},"properties":{"id":"m-47","name":"大宮 抹茶専門 茶々","name_reading":"おおみや まっちゃせんもん ちゃちゃ","prefecture":"埼玉県","address":"埼玉県さいたま市大宮区大門町","type":"cafe","characteristics":"大宮駅近。抹茶パフェ専門。","source":"national"}},
    {"type":"Feature","geometry":{"type":"Point","coordinates":[140.12,35.61]},"properties":{"id":"m-48","name":"千葉 茶寮 ポート","name_reading":"ちば さりょう ぽーと","prefecture":"千葉県","address":"千葉県千葉市中央区新町","type":"cafe","characteristics":"千葉ポートパーク近く。抹茶スイーツ。","source":"national"}},
    {"type":"Feature","geometry":{"type":"Point","coordinates":[139.70,35.73]},"properties":{"id":"m-49","name":"祇園辻利 スカイツリーソラマチ","name_reading":"ぎおんつじり すかいつりーそらまち","prefecture":"東京都","address":"東京都墨田区押上1-1-2","type":"cafe","characteristics":"スカイツリー観光に。抹茶ソフトが人気。","source":"national"}},
    {"type":"Feature","geometry":{"type":"Point","coordinates":[139.70,35.69]},"properties":{"id":"m-50","name":"京都 茶寮翠泉 新宿店","name_reading":"きょうと さりょうすいせん しんじゅくてん","prefecture":"東京都","address":"東京都新宿区西新宿1-1-4","type":"tea_house","characteristics":"新宿で京都の抹茶を。","source":"national"}},
    {"type":"Feature","geometry":{"type":"Point","coordinates":[139.64,35.44]},"properties":{"id":"m-51","name":"横浜 茶房 港の見える丘","name_reading":"よこはま さぼう みなとのみえるおか","prefecture":"神奈川県","address":"神奈川県横浜市中区山手町","type":"tea_house","characteristics":"港の見える丘公園近く。抹茶と横浜スイーツ。","source":"national"}},
    {"type":"Feature","geometry":{"type":"Point","coordinates":[139.55,35.31]},"properties":{"id":"m-52","name":"鎌倉 茶房 小町","name_reading":"かまくら さぼう こまち","prefecture":"神奈川県","address":"神奈川県鎌倉市小町","type":"tea_house","characteristics":"鎌倉観光の定番。抹茶と大仏メニュー。","source":"national"}},
    {"type":"Feature","geometry":{"type":"Point","coordinates":[139.04,37.92]},"properties":{"id":"m-53","name":"新潟 茶寮 古町","name_reading":"にいがた さりょう ふるまち","prefecture":"新潟県","address":"新潟県新潟市中央区古町通","type":"tea_house","characteristics":"新潟の和スイーツと抹茶。","source":"national"}},
    {"type":"Feature","geometry":{"type":"Point","coordinates":[137.21,36.70]},"properties":{"id":"m-54","name":"富山 茶房 環水","name_reading":"とやま さぼう かんすい","prefecture":"富山県","address":"富山県富山市湊入船町","type":"tea_house","characteristics":"富山駅北の環水公園近く。","source":"national"}},
    {"type":"Feature","geometry":{"type":"Point","coordinates":[136.62,36.58]},"properties":{"id":"m-55","name":"金沢 茶房 兼六","name_reading":"かなざわ さぼう けんろく","prefecture":"石川県","address":"石川県金沢市広岡","type":"tea_house","characteristics":"兼六園近く。加賀の抹茶スイーツ。","source":"national"}},
    {"type":"Feature","geometry":{"type":"Point","coordinates":[136.22,36.07]},"properties":{"id":"m-56","name":"福井 茶寮 三国","name_reading":"ふくい さりょう みくに","prefecture":"福井県","address":"福井県坂井市三国町","type":"tea_house","characteristics":"三国港近く。越前と抹茶。","source":"national"}},
    {"type":"Feature","geometry":{"type":"Point","coordinates":[138.57,35.66]},"properties":{"id":"m-57","name":"甲府 抹茶カフェ ぶどうの丘","name_reading":"こうふ まっちゃかふぇ ぶどうのおか","prefecture":"山梨県","address":"山梨県甲府市丸の内","type":"cafe","characteristics":"ぶどうと抹茶の山梨スイーツ。","source":"national"}},
    {"type":"Feature","geometry":{"type":"Point","coordinates":[138.58,36.35]},"properties":{"id":"m-58","name":"軽井沢 茶房 旧道","name_reading":"かるいざわ さぼう きゅうどう","prefecture":"長野県","address":"長野県北佐久郡軽井沢町旧軽井沢","type":"tea_house","characteristics":"軽井沢の避暑に。抹茶と軽井沢スイーツ。","source":"national"}},
    {"type":"Feature","geometry":{"type":"Point","coordinates":[137.97,36.24]},"properties":{"id":"m-59","name":"松本 茶寮 城下","name_reading":"まつもと さりょう じょうか","prefecture":"長野県","address":"長野県松本市中央","type":"tea_house","characteristics":"松本城近く。信州と抹茶。","source":"national"}},
    {"type":"Feature","geometry":{"type":"Point","coordinates":[136.72,35.42]},"properties":{"id":"m-60","name":"岐阜 茶房 長良川","name_reading":"ぎふ さぼう ながらがわ","prefecture":"岐阜県","address":"岐阜県岐阜市長住町","type":"tea_house","characteristics":"長良川の畔。抹茶と岐阜和菓子。","source":"national"}},
    {"type":"Feature","geometry":{"type":"Point","coordinates":[137.25,36.15]},"properties":{"id":"m-61","name":"高山 茶寮 古い町並","name_reading":"たかやま さりょう ふるいまちなみ","prefecture":"岐阜県","address":"岐阜県高山市上一之町","type":"tea_house","characteristics":"飛騨高山の古い町並で抹茶を。","source":"national"}},
    {"type":"Feature","geometry":{"type":"Point","coordinates":[138.38,34.98]},"properties":{"id":"m-62","name":"静岡 茶の都 本店","name_reading":"しずおか ちゃのみやこ ほんてん","prefecture":"静岡県","address":"静岡県静岡市駿河区","type":"shop","characteristics":"静岡茶の販売と抹茶喫茶。","source":"national"}},
    {"type":"Feature","geometry":{"type":"Point","coordinates":[138.45,35.00]},"properties":{"id":"m-63","name":"藤枝 茶の町 茶房","name_reading":"ふじえだ ちゃのまち さぼう","prefecture":"静岡県","address":"静岡県藤枝市駅前","type":"tea_house","characteristics":"茶どころ藤枝で本格抹茶。","source":"national"}},
    {"type":"Feature","geometry":{"type":"Point","coordinates":[136.91,35.17]},"properties":{"id":"m-64","name":"名古屋 伏見 茶々","name_reading":"なごや ふしみ ちゃちゃ","prefecture":"愛知県","address":"愛知県名古屋市中区栄","type":"cafe","characteristics":"栄・伏見エリア。抹茶パフェ。","source":"national"}},
    {"type":"Feature","geometry":{"type":"Point","coordinates":[135.83,34.69]},"properties":{"id":"m-65","name":"奈良 東向き 茶房","name_reading":"なら ひがしむき さぼう","prefecture":"奈良県","address":"奈良県奈良市東向中町","type":"tea_house","characteristics":"奈良公園近く。柿の葉寿司と抹茶。","source":"national"}},
    {"type":"Feature","geometry":{"type":"Point","coordinates":[135.77,34.73]},"properties":{"id":"m-66","name":"京都 清水 茶寮","name_reading":"きょうと きよみず さりょう","prefecture":"京都府","address":"京都府京都市東山区清水","type":"tea_house","characteristics":"清水寺参道。京の抹茶と view。","source":"national"}},
    {"type":"Feature","geometry":{"type":"Point","coordinates":[135.51,34.69]},"properties":{"id":"m-67","name":"京都 伏見 茶房 月","name_reading":"きょうと ふしみ さぼう つき","prefecture":"京都府","address":"京都府京都市伏見区桃山町","type":"tea_house","characteristics":"伏見稲荷・桃山。抹茶と甘味。","source":"national"}},
    {"type":"Feature","geometry":{"type":"Point","coordinates":[135.52,34.70]},"properties":{"id":"m-68","name":"宇治 通園 茶房","name_reading":"うじ つうえん さぼう","prefecture":"京都府","address":"京都府宇治市宇治","type":"tea_house","characteristics":"宇治川沿い。抹茶と生菓子。","source":"national"}},
    {"type":"Feature","geometry":{"type":"Point","coordinates":[135.84,34.99]},"properties":{"id":"m-69","name":"京都 錦 茶房","name_reading":"きょうと にしき さぼう","prefecture":"京都府","address":"京都府京都市中京区錦小路","type":"tea_house","characteristics":"錦市場で抹茶と京野菜スイーツ。","source":"national"}},
    {"type":"Feature","geometry":{"type":"Point","coordinates":[135.78,34.99]},"properties":{"id":"m-70","name":"京都 先斗町 茶房","name_reading":"きょうと ぽんとちょう さぼう","prefecture":"京都府","address":"京都府京都市中京区先斗町","type":"tea_house","characteristics":"先斗町の路地で抹茶甘味。","source":"national"}},
    {"type":"Feature","geometry":{"type":"Point","coordinates":[135.49,34.70]},"properties":{"id":"m-71","name":"大阪 心斎橋 茶々","name_reading":"おおさか しんさいばし ちゃちゃ","prefecture":"大阪府","address":"大阪府大阪市中央区心斎橋筋","type":"cafe","characteristics":"心斎橋で抹茶スイーツ。","source":"national"}},
    {"type":"Feature","geometry":{"type":"Point","coordinates":[135.51,34.67]},"properties":{"id":"m-72","name":"大阪 難波 ななの茶","name_reading":"おおさか なんば ななのちゃ","prefecture":"大阪府","address":"大阪府大阪市浪速区難波中","type":"cafe","characteristics":"難波で抹茶ドリンクとパフェ。","source":"national"}},
    {"type":"Feature","geometry":{"type":"Point","coordinates":[135.52,34.67]},"properties":{"id":"m-73","name":"大阪 梅田 茶々","name_reading":"おおさか うめだ ちゃちゃ","prefecture":"大阪府","address":"大阪府大阪市北区梅田","type":"cafe","characteristics":"梅田で抹茶スイーツ。","source":"national"}},
    {"type":"Feature","geometry":{"type":"Point","coordinates":[135.52,34.68]},"properties":{"id":"m-74","name":"大阪 黒門市場 茶房","name_reading":"おおさか くろもんいちば さぼう","prefecture":"大阪府","address":"大阪府大阪市中央区日本橋","type":"tea_house","characteristics":"黒門市場で抹茶とフルーツ。","source":"national"}},
    {"type":"Feature","geometry":{"type":"Point","coordinates":[134.69,34.83]},"properties":{"id":"m-75","name":"姫路 茶寮 城下","name_reading":"ひめじ さりょう じょうか","prefecture":"兵庫県","address":"兵庫県姫路市本町","type":"tea_house","characteristics":"姫路城近く。抹茶と播州スイーツ。","source":"national"}},
    {"type":"Feature","geometry":{"type":"Point","coordinates":[135.46,34.65]},"properties":{"id":"m-76","name":"神戸 元町 茶房","name_reading":"こうべ もとまち さぼう","prefecture":"兵庫県","address":"兵庫県神戸市中央区元町通","type":"tea_house","characteristics":"元町で神戸の抹茶スイーツ。","source":"national"}},
    {"type":"Feature","geometry":{"type":"Point","coordinates":[135.17,34.23]},"properties":{"id":"m-77","name":"和歌山 茶房 紀州","name_reading":"わかやま さぼう きしゅう","prefecture":"和歌山県","address":"和歌山県和歌山市小松原通","type":"tea_house","characteristics":"紀州みかんと抹茶のコラボ。","source":"national"}},
    {"type":"Feature","geometry":{"type":"Point","coordinates":[134.24,35.50]},"properties":{"id":"m-78","name":"鳥取 茶寮 砂丘","name_reading":"とっとり さりょう さきゅう","prefecture":"鳥取県","address":"鳥取県鳥取市東町","type":"tea_house","characteristics":"鳥取砂丘観光に。抹茶と梨スイーツ。","source":"national"}},
    {"type":"Feature","geometry":{"type":"Point","coordinates":[132.76,35.37]},"properties":{"id":"m-79","name":"出雲 大社前 茶房","name_reading":"いずも たいしゃまえ さぼう","prefecture":"島根県","address":"島根県出雲市大社町","type":"tea_house","characteristics":"出雲大社参拝後に。抹茶と出雲そば。","source":"national"}},
    {"type":"Feature","geometry":{"type":"Point","coordinates":[133.93,34.65]},"properties":{"id":"m-80","name":"岡山 茶寮 後楽園","name_reading":"おかやま さりょう こうらくえん","prefecture":"岡山県","address":"岡山県岡山市北区丸の内","type":"tea_house","characteristics":"後楽園近く。桃太郎と抹茶。","source":"national"}},
    {"type":"Feature","geometry":{"type":"Point","coordinates":[130.94,33.95]},"properties":{"id":"m-81","name":"下関 茶房 唐戸","name_reading":"しものせき さぼう からと","prefecture":"山口県","address":"山口県下関市唐戸町","type":"tea_house","characteristics":"唐戸市場近く。ふくと抹茶。","source":"national"}},
    {"type":"Feature","geometry":{"type":"Point","coordinates":[134.56,34.07]},"properties":{"id":"m-82","name":"徳島 茶寮 阿波","name_reading":"とくしま さりょう あわ","prefecture":"徳島県","address":"徳島県徳島市幸町","type":"tea_house","characteristics":"阿波踊り観光に。すだちと抹茶。","source":"national"}},
    {"type":"Feature","geometry":{"type":"Point","coordinates":[134.04,34.34]},"properties":{"id":"m-83","name":"高松 茶房 栗林","name_reading":"たかまつ さぼう りつりん","prefecture":"香川県","address":"香川県高松市栗林町","type":"tea_house","characteristics":"栗林公園近く。うどん県の抹茶。","source":"national"}},
    {"type":"Feature","geometry":{"type":"Point","coordinates":[132.77,33.84]},"properties":{"id":"m-84","name":"松山 茶寮 道後","name_reading":"まつやま さりょう どうご","prefecture":"愛媛県","address":"愛媛県松山市道後湯之町","type":"tea_house","characteristics":"道後温泉で抹茶とみかんスイーツ。","source":"national"}},
    {"type":"Feature","geometry":{"type":"Point","coordinates":[133.53,33.56]},"properties":{"id":"m-85","name":"高知 茶房 はりまや","name_reading":"こうち さぼう はりまや","prefecture":"高知県","address":"高知県高知市はりまや町","type":"tea_house","characteristics":"はりまや橋近く。土佐と抹茶。","source":"national"}},
    {"type":"Feature","geometry":{"type":"Point","coordinates":[130.40,33.59]},"properties":{"id":"m-86","name":"福岡 天神 茶々","name_reading":"ふくおか てんじん ちゃちゃ","prefecture":"福岡県","address":"福岡県福岡市中央区天神","type":"cafe","characteristics":"天神で抹茶パフェ。","source":"national"}},
    {"type":"Feature","geometry":{"type":"Point","coordinates":[130.4181,33.587]},"properties":{"id":"m-87","name":"福岡 博多 茶房 八ツ橋","name_reading":"ふくおか はかた さぼう やつはし","prefecture":"福岡県","address":"福岡県福岡市博多区博多駅前2-1-1","type":"cafe","characteristics":"博多駅周辺の抹茶スイーツ。京風と博多の融合。","source":"national"}},
    {"type":"Feature","geometry":{"type":"Point","coordinates":[130.39,33.58]},"properties":{"id":"m-88","name":"福岡 中洲 茶房","name_reading":"ふくおか なかす さぼう","prefecture":"福岡県","address":"福岡県福岡市博多区中洲","type":"tea_house","characteristics":"中洲で夜の抹茶スイーツ。","source":"national"}},
    {"type":"Feature","geometry":{"type":"Point","coordinates":[130.30,33.25]},"properties":{"id":"m-89","name":"佐賀 茶寮 吉野ヶ里","name_reading":"さが さりょう よしのがり","prefecture":"佐賀県","address":"佐賀県佐賀市駅前中央","type":"tea_house","characteristics":"吉野ヶ里遺跡近く。有田と抹茶。","source":"national"}},
    {"type":"Feature","geometry":{"type":"Point","coordinates":[129.88,32.75]},"properties":{"id":"m-90","name":"長崎 茶房 グラバー園","name_reading":"ながさき さぼう ぐらばーえん","prefecture":"長崎県","address":"長崎県長崎市南山手町","type":"tea_house","characteristics":"グラバー園近く。長崎と抹茶。","source":"national"}},
    {"type":"Feature","geometry":{"type":"Point","coordinates":[131.61,33.24]},"properties":{"id":"m-91","name":"大分 茶房 湯布院","name_reading":"おおいた さぼう ゆふいん","prefecture":"大分県","address":"大分県由布市湯布院町","type":"tea_house","characteristics":"湯布院温泉で抹茶と豊後スイーツ。","source":"national"}},
    {"type":"Feature","geometry":{"type":"Point","coordinates":[131.42,31.91]},"properties":{"id":"m-92","name":"宮崎 茶寮 橘通","name_reading":"みやざき さりょう たちばなどおり","prefecture":"宮崎県","address":"宮崎県宮崎市橘通東","type":"tea_house","characteristics":"宮崎のマンゴーと抹茶。","source":"national"}},
    {"type":"Feature","geometry":{"type":"Point","coordinates":[130.56,31.60]},"properties":{"id":"m-93","name":"鹿児島 茶房 天文館","name_reading":"かごしま さぼう てんもんかん","prefecture":"鹿児島県","address":"鹿児島県鹿児島市東千石町","type":"tea_house","characteristics":"天文館で抹茶とさつまいもスイーツ。","source":"national"}},
    {"type":"Feature","geometry":{"type":"Point","coordinates":[127.75,26.22]},"properties":{"id":"m-94","name":"那覇 首里 茶房","name_reading":"なは しゅり さぼう","prefecture":"沖縄県","address":"沖縄県那覇市首里金城町","type":"tea_house","characteristics":"首里城近く。沖縄と抹茶。","source":"national"}},
    {"type":"Feature","geometry":{"type":"Point","coordinates":[139.65,35.46]},"properties":{"id":"m-95","name":"横浜 みなとみらい 茶々","name_reading":"よこはま みなとみらい ちゃちゃ","prefecture":"神奈川県","address":"神奈川県横浜市西区みなとみらい","type":"cafe","characteristics":"みなとみらいで抹茶スイーツ。","source":"national"}},
    {"type":"Feature","geometry":{"type":"Point","coordinates":[139.77,35.67]},"properties":{"id":"m-96","name":"東京 池袋 抹茶カフェ","name_reading":"とうきょう いけぶくろ まっちゃかふぇ","prefecture":"東京都","address":"東京都豊島区東池袋","type":"cafe","characteristics":"池袋で濃厚抹茶ドリンク。","source":"national"}},
    {"type":"Feature","geometry":{"type":"Point","coordinates":[139.70,35.67]},"properties":{"id":"m-97","name":"東京 上野 茶寮","name_reading":"とうきょう うえの さりょう","prefecture":"東京都","address":"東京都台東区上野公園","type":"tea_house","characteristics":"上野公園近く。美術館帰りに抹茶。","source":"national"}},
    {"type":"Feature","geometry":{"type":"Point","coordinates":[139.62,35.54]},"properties":{"id":"m-98","name":"自由が丘 茶房 スイーツ","name_reading":"じゆうがおか さぼう すいーつ","prefecture":"東京都","address":"東京都目黒区自由が丘","type":"cafe","characteristics":"自由が丘の抹茶スイーツ専門。","source":"national"}},
    {"type":"Feature","geometry":{"type":"Point","coordinates":[136.90,35.19]},"properties":{"id":"m-99","name":"名古屋 栄 抹茶パフェ","name_reading":"なごや さかえ まっちゃぱふぇ","prefecture":"愛知県","address":"愛知県名古屋市中区栄3丁目","type":"cafe","characteristics":"栄で抹茶パフェ専門店。","source":"national"}},
    {"type":"Feature","geometry":{"type":"Point","coordinates":[141.35,43.07]},"properties":{"id":"m-100","name":"札幌 時計台 茶寮","name_reading":"さっぽろ とけいだい さりょう","prefecture":"北海道","address":"北海道札幌市中央区北1条西2","type":"tea_house","characteristics":"時計台近く。北海道の抹茶。","source":"national"}},
    {"type":"Feature","geometry":{"type":"Point","coordinates":[139.88,36.56]},"properties":{"id":"m-101","name":"宇都宮 茶房 餃子の街","name_reading":"うつのみや さぼう ぎょうざのまち","prefecture":"栃木県","address":"栃木県宇都宮市中央","type":"tea_house","characteristics":"餃子の街で抹茶と和菓子。","source":"national"}},
    {"type":"Feature","geometry":{"type":"Point","coordinates":[139.60,35.87]},"properties":{"id":"m-102","name":"川口 茶寮 鳩ヶ谷","name_reading":"かわぐち さりょう はとがや","prefecture":"埼玉県","address":"埼玉県川口市鳩ヶ谷","type":"cafe","characteristics":"川口で抹茶スイーツ。","source":"national"}},
    {"type":"Feature","geometry":{"type":"Point","coordinates":[139.10,35.23]},"properties":{"id":"m-103","name":"箱根 湯本 茶房","name_reading":"はこね ゆもと さぼう","prefecture":"神奈川県","address":"神奈川県足柄下郡箱根町湯本","type":"tea_house","characteristics":"箱根温泉で抹茶と甘味。","source":"national"}},
    {"type":"Feature","geometry":{"type":"Point","coordinates":[138.85,37.45]},"properties":{"id":"m-104","name":"長岡 茶寮 花火の街","name_reading":"ながおか さりょう はなびのまち","prefecture":"新潟県","address":"新潟県長岡市大手通","type":"tea_house","characteristics":"長岡で抹茶と和スイーツ。","source":"national"}},
    {"type":"Feature","geometry":{"type":"Point","coordinates":[138.19,36.65]},"properties":{"id":"m-105","name":"長野 善光寺 門前 茶房","name_reading":"ながの ぜんこうじ もんぜん さぼう","prefecture":"長野県","address":"長野県長野市元善町","type":"tea_house","characteristics":"善光寺門前で抹茶を。","source":"national"}},
    {"type":"Feature","geometry":{"type":"Point","coordinates":[137.15,35.08]},"properties":{"id":"m-106","name":"豊田 茶房 ものづくり","name_reading":"とよた さぼう ものづくり","prefecture":"愛知県","address":"愛知県豊田市喜多町","type":"cafe","characteristics":"豊田で抹茶スイーツ。","source":"national"}},
    {"type":"Feature","geometry":{"type":"Point","coordinates":[136.51,34.73]},"properties":{"id":"m-107","name":"津 茶寮 伊勢街道","name_reading":"つ さりょう いせかいどう","prefecture":"三重県","address":"三重県津市西丸之内","type":"tea_house","characteristics":"津の町で抹茶と甘味。","source":"national"}},
    {"type":"Feature","geometry":{"type":"Point","coordinates":[136.26,35.27]},"properties":{"id":"m-108","name":"彦根 城下 茶房","name_reading":"ひこね じょうか さぼう","prefecture":"滋賀県","address":"滋賀県彦根市本町","type":"tea_house","characteristics":"彦根城近く。ひこにゃんと抹茶。","source":"national"}},
    {"type":"Feature","geometry":{"type":"Point","coordinates":[135.74,34.98]},"properties":{"id":"m-109","name":"京都 二条城 周辺 茶房","name_reading":"きょうと にじょうじょう しゅうへん さぼう","prefecture":"京都府","address":"京都府京都市中京区二条城前","type":"tea_house","characteristics":"二条城近く。京の抹茶。","source":"national"}},
    {"type":"Feature","geometry":{"type":"Point","coordinates":[135.47,34.65]},"properties":{"id":"m-110","name":"堺 茶房 環濠","name_reading":"さかい さぼう かんごう","prefecture":"大阪府","address":"大阪府堺市堺区宿院町","type":"tea_house","characteristics":"堺の環濠で抹茶を。","source":"national"}},
    {"type":"Feature","geometry":{"type":"Point","coordinates":[135.34,34.74]},"properties":{"id":"m-111","name":"西宮 茶寮 甲子園","name_reading":"にしのみや さりょう こうしえん","prefecture":"兵庫県","address":"兵庫県西宮市甲子園","type":"cafe","characteristics":"甲子園近く。抹茶スイーツ。","source":"national"}},
    {"type":"Feature","geometry":{"type":"Point","coordinates":[135.83,34.68]},"properties":{"id":"m-112","name":"奈良 ならまち 茶房","name_reading":"なら ならまち さぼう","prefecture":"奈良県","address":"奈良県奈良市東向南町","type":"tea_house","characteristics":"ならまちで抹茶と町家スイーツ。","source":"national"}},
    {"type":"Feature","geometry":{"type":"Point","coordinates":[133.77,34.83]},"properties":{"id":"m-113","name":"倉敷 美観地区 茶房","name_reading":"くらしき びかんちく さぼう","prefecture":"岡山県","address":"岡山県倉敷市中央","type":"tea_house","characteristics":"美観地区で抹茶と白壁の町。","source":"national"}},
    {"type":"Feature","geometry":{"type":"Point","coordinates":[132.45,34.39]},"properties":{"id":"m-114","name":"広島 宮島口 茶房","name_reading":"ひろしま みやじまぐち さぼう","prefecture":"広島県","address":"広島県廿日市市宮島口","type":"tea_house","characteristics":"宮島参拝前に抹茶を。","source":"national"}},
    {"type":"Feature","geometry":{"type":"Point","coordinates":[130.37,33.52]},"properties":{"id":"m-115","name":"柳川 川下り 茶房","name_reading":"やながわ かわくだり さぼう","prefecture":"福岡県","address":"福岡県柳川市三橋町","type":"tea_house","characteristics":"柳川の川下りと抹茶。","source":"national"}},
    {"type":"Feature","geometry":{"type":"Point","coordinates":[130.98,32.79]},"properties":{"id":"m-116","name":"阿蘇 茶房 火の国","name_reading":"あそ さぼう ひのくに","prefecture":"熊本県","address":"熊本県阿蘇市一の宮","type":"tea_house","characteristics":"阿蘇の麓で抹茶と熊本スイーツ。","source":"national"}},
    {"type":"Feature","geometry":{"type":"Point","coordinates":[139.73,35.65]},"properties":{"id":"m-117","name":"東京 代々木 抹茶カフェ","name_reading":"とうきょう よよぎ まっちゃかふぇ","prefecture":"東京都","address":"東京都渋谷区富ヶ谷","type":"cafe","characteristics":"代々木で抹茶ドリンク。","source":"national"}},
    {"type":"Feature","geometry":{"type":"Point","coordinates":[139.68,35.65]},"properties":{"id":"m-118","name":"東京 吉祥寺 茶房","name_reading":"とうきょう きちじょうじ さぼう","prefecture":"東京都","address":"東京都武蔵野市吉祥寺本町","type":"cafe","characteristics":"吉祥寺で抹茶スイーツ。","source":"national"}},
    {"type":"Feature","geometry":{"type":"Point","coordinates":[139.80,35.62]},"properties":{"id":"m-119","name":"東京 日本橋 茶寮","name_reading":"とうきょう にほんばし さりょう","prefecture":"東京都","address":"東京都中央区日本橋","type":"tea_house","characteristics":"日本橋で本格抹茶。","source":"national"}},
    {"type":"Feature","geometry":{"type":"Point","coordinates":[135.44,34.65]},"properties":{"id":"m-120","name":"大阪 天王寺 茶々","name_reading":"おおさか てんのうじ ちゃちゃ","prefecture":"大阪府","address":"大阪府大阪市天王寺区","type":"cafe","characteristics":"天王寺・阿倍野で抹茶スイーツ。","source":"national"}},
    {"type":"Feature","geometry":{"type":"Point","coordinates":[135.80,34.98]},"properties":{"id":"m-121","name":"京都 河原町 茶房","name_reading":"きょうと かわらまち さぼう","prefecture":"京都府","address":"京都府京都市中京区河原町通","type":"tea_house","characteristics":"河原町で抹茶と京甘味。","source":"national"}},
    {"type":"Feature","geometry":{"type":"Point","coordinates":[140.87,37.92]},"properties":{"id":"m-122","name":"新潟 燕 茶房","name_reading":"にいがた つばめ さぼう","prefecture":"新潟県","address":"新潟県燕市吉田","type":"tea_house","characteristics":"燕・三条で抹茶と金属の街。","source":"national"}},
    {"type":"Feature","geometry":{"type":"Point","coordinates":[134.00,34.22]},"properties":{"id":"m-123","name":"高知 室戸 茶房","name_reading":"こうち むろと さぼう","prefecture":"高知県","address":"高知県室戸市室戸岬町","type":"tea_house","characteristics":"室戸岬で抹茶と土佐の海。","source":"national"}},
    {"type":"Feature","geometry":{"type":"Point","coordinates":[128.00,26.59]},"properties":{"id":"m-124","name":"沖縄 美ら海 茶房","name_reading":"おきなわ ちゅらうみ さぼう","prefecture":"沖縄県","address":"沖縄県国頭郡本部町","type":"cafe","characteristics":"海洋博近く。沖縄と抹茶。","source":"national"}},
    {"type":"Feature","geometry":{"type":"Point","coordinates":[141.00,42.92]},"properties":{"id":"m-125","name":"室蘭 茶房 地球岬","name_reading":"むろらん さぼう ちきゅうみさき","prefecture":"北海道","address":"北海道室蘭市祝津町","type":"tea_house","characteristics":"地球岬近く。室蘭で抹茶を。","source":"national"}}
  ]
}
